Type,Units,Time,X Position,Y Position,Y Encoder,Z Position,Z Encoder,Yaw,Pitch,WAFBC Drag,WAFBC Side,WAFBC Lift,WAFBC Roll,WAFBC Pitch,WAFBC Yaw,WAFMC Drag,WAFMC Side,WAFMC Lift,WAFMC Roll,WAFMC Pitch,WAFMC Yaw,BAFMC Axial,BAFMC Side,BAFMC Normal,BAFMC Roll,BAFMC Pitch,BAFMC Yaw,DPT250,DPT251,PT250,TE250,Velocity,Dynamic Pressure,Mach,Reynolds Number per ft,Velocity Setpoint,Temperature Setpoint,cDAQ AI0,cDAQ AI1,cDAQ AI2,cDAQ AI3,cDAQ AI4,cDAQ AI5,cDAQ AI6,cDAQ AI7,cRIO AI0,cRIO AI1,cRIO AI2,cRIO AI3,Drag (raw),Side (raw),Lift (raw),Roll (raw),Pitch (raw),Yaw (raw)
Type,USC / SI,Time,Inches / Millimeters,Inches / Millimeters,Inches / Millimeters,Inches / Millimeters,Inches / Millimeters,Degrees / Degrees,Degrees / Degrees,lb / N,lb / N,lb / N,ft-lb / N-m,ft-lb / N-m,ft-lb / N-m,lb / N,lb / N,lb / N,ft-lb / N-m,ft-lb / N-m,ft-lb / N-m,lb / N,lb / N,lb / N,ft-lb / N-m,ft-lb / N-m,ft-lb / N-m,PSId / Pascals,PSId / Pascals,PSIa / Pascals,F / F,Ft/s / m/s,PSId / Pascals, / ,1/ft / 1/ft,ft/s / m/s,F / F, / , / , / , / , / , / , / , / , / , / , / , / , / , / , / , / , / , / 
Sing,USC,220407 14:20:49.965, 0.000000, 0.000000, 0.000000, 0.000000, 0.000000,19.999999,-0.000000,-0.040904, 0.100036,-0.166898,-1.920334, 2.812081,-0.374975,-0.040904, 0.100036,-0.166898,-1.920334, 2.812081,-0.374975,-0.072652, 0.080013,-0.166898,-2.766312, 1.985699,-0.374975, 0.000000, 0.000038,14.582470,72.969980, 0.000000, 0.000000, 0.000000, 0.000000, 0.000000,72.969982,-0.000000,-0.000000,-0.000000,-0.000000,-0.000000,-0.000000,-0.000000,-0.000000,-10.422729,10.314362, 0.001515,-10.375275, 0.000301,,,,,
Sing,USC,220407 14:21:07.662, 0.000000, 0.000000, 0.000000, 0.000000, 0.000000,18.000000,-0.000000,-0.026365, 0.073655,-0.118610,-1.740904, 2.419040,-0.268329,-0.026365, 0.073655,-0.118610,-1.740904, 2.419040,-0.268329,-0.047835, 0.061903,-0.118610,-2.403223, 1.762675,-0.268329, 0.000000, 0.000041,14.579475,72.969137, 0.000000, 0.000000, 0.000000, 0.000000, 0.000000,72.969165,-0.000000,-0.000000,-0.000000,-0.000000,-0.000000,-0.000000,-0.000000,-0.000000,-10.422729,10.314362, 0.001506,-10.375275, 0.000206,,,,,
Sing,USC,220407 14:21:25.364, 0.000000, 0.000000, 0.000000, 0.000000, 0.000000,15.999999,-0.000000,-0.012882, 0.062632,-0.091710,-1.539684, 2.097500,-0.200495,-0.012882, 0.062632,-0.091710,-1.539684, 2.097500,-0.200495,-0.029647, 0.056655,-0.091710,-2.058188, 1.591852,-0.200495, 0.000000, 0.000019,14.578755,72.968140, 0.000000, 0.000000, 0.000000, 0.000000, 0.000000,72.968101,-0.000000,-0.000000,-0.000000,-0.000000,-0.000000,-0.000000,-0.000000,-0.000000,-10.422729,10.314362, 0.001518,-10.375275, 0.000114,,,,,
Sing,USC,220407 14:21:43.066, 0.000000, 0.000000, 0.000000, 0.000000, 0.000000,13.999998,-0.000000, 0.001684, 0.059490,-0.072390,-1.333041, 1.798613,-0.143234, 0.001684, 0.059490,-0.072390,-1.333041, 1.798613,-0.143234,-0.012758, 0.058131,-0.072390,-1.728568, 1.422695,-0.143234, 0.000000, 0.000028,14.580825,72.967634, 0.000000, 0.000000, 0.000000, 0.000000, 0.000000,72.967629,-0.000000,-0.000000,-0.000000,-0.000000,-0.000000,-0.000000,-0.000000,-0.000000,-10.422729,10.314362, 0.001477,-10.375275, 0.000011,,,,,
Sing,USC,220407 14:22:00.768, 0.000000, 0.000000, 0.000000, 0.000000, 0.000000,12.000000,-0.000000, 0.008911, 0.045882,-0.060573,-1.140947, 1.522175,-0.098865, 0.008911, 0.045882,-0.060573,-1.140947, 1.522175,-0.098865,-0.000823, 0.046733,-0.060573,-1.432492, 1.251696,-0.098865, 0.000000, 0.000009,14.580654,72.967173, 0.000000, 0.000000, 0.000000, 0.000000, 0.000000,72.967206,-0.000000,-0.000000,-0.000000,-0.000000,-0.000000,-0.000000,-0.000000,-0.000000,-10.422729,10.314362, 0.001462,-10.375275,-0.000039,,,,,
Sing,USC,220407 14:22:18.479, 0.000000, 0.000000, 0.000000, 0.000000, 0.000000, 9.999999,-0.000000, 0.007878, 0.035875,-0.043383,-0.948032, 1.266687,-0.062170, 0.007878, 0.035875,-0.043383,-0.948032, 1.266687,-0.062170, 0.001528, 0.036698,-0.043383,-1.153587, 1.082819,-0.062170, 0.000000, 0.000024,14.579731,72.966604, 0.000000, 0.000000, 0.000000, 0.000000, 0.000000,72.966604,-0.000000,-0.000000,-0.000000,-0.000000,-0.000000,-0.000000,-0.000000,-0.000000,-10.422729,10.314362, 0.001497,-10.375275,-0.000036,,,,,
Sing,USC,220407 14:22:36.170, 0.000000, 0.000000, 0.000000, 0.000000, 0.000000, 8.000000,-0.000000, 0.015905, 0.030260,-0.025704,-0.753734, 0.974348,-0.026350, 0.015905, 0.030260,-0.025704,-0.753734, 0.974348,-0.026350, 0.011539, 0.032179,-0.025704,-0.882001, 0.859966,-0.026350, 0.000000, 0.000025,14.579852,72.965902, 0.000000, 0.000000, 0.000000, 0.000000, 0.000000,72.965899,-0.000000,-0.000000,-0.000000,-0.000000,-0.000000,-0.000000,-0.000000,-0.000000,-10.422729,10.314362, 0.001478,-10.375275,-0.000094,,,,,
Sing,USC,220407 14:22:53.877, 0.000000, 0.000000, 0.000000, 0.000000, 0.000000, 5.999999,-0.000000, 0.022304, 0.030180, 0.001539,-0.573555, 0.707029,-0.003449, 0.022304, 0.030180, 0.001539,-0.573555, 0.707029,-0.003449, 0.019027, 0.032346, 0.001539,-0.644318, 0.643203,-0.003449, 0.000000, 0.000019,14.579439,72.964750, 0.000000, 0.000000, 0.000000, 0.000000, 0.000000,72.964772,-0.000000,-0.000000,-0.000000,-0.000000,-0.000000,-0.000000,-0.000000,-0.000000,-10.422729,10.314362, 0.001475,-10.375275,-0.000144,,,,,
Sing,USC,220407 14:23:11.574, 0.000000, 0.000000, 0.000000, 0.000000, 0.000000, 4.000000,-0.000000, 0.018388, 0.026956,-0.020327,-0.398825, 0.436120, 0.025994, 0.018388, 0.026956,-0.020327,-0.398825, 0.436120, 0.025994, 0.016463, 0.028173,-0.020327,-0.428275, 0.407237, 0.025994, 0.000000, 0.000024,14.578842,72.963639, 0.000000, 0.000000, 0.000000, 0.000000, 0.000000,72.963637,-0.000000,-0.000000,-0.000000,-0.000000,-0.000000,-0.000000,-0.000000,-0.000000,-10.422729,10.314362, 0.001423,-10.375275,-0.000123,,,,,
Sing,USC,220407 14:23:29.273, 0.000000, 0.000000, 0.000000, 0.000000, 0.000000, 1.999999,-0.000000, 0.022949, 0.019089,-0.000735,-0.224697, 0.158380, 0.050669, 0.022949, 0.019089,-0.000735,-0.224697, 0.158380, 0.050669, 0.022268, 0.019878,-0.000735,-0.230088, 0.150442, 0.050669, 0.000000, 0.000013,14.579341,72.963780, 0.000000, 0.000000, 0.000000, 0.000000, 0.000000,72.963766,-0.000000,-0.000000,-0.000000,-0.000000,-0.000000,-0.000000,-0.000000,-0.000000,-10.422729,10.314362, 0.001481,-10.375275,-0.000158,,,,,
Sing,USC,220407 14:23:46.966, 0.000000, 0.000000, 0.000000, 0.000000, 0.000000, 0.000000,-0.000000, 0.024804, 0.010342, 0.003089,-0.070814,-0.105714, 0.067023, 0.024804, 0.010342, 0.003089,-0.070814,-0.105714, 0.067023, 0.024804, 0.010342, 0.003089,-0.070814,-0.105714, 0.067023, 0.000000, 0.000026,14.578652,72.962916, 0.000000, 0.000000, 0.000000, 0.000000, 0.000000,72.962932,-0.000000,-0.000000,-0.000000,-0.000000,-0.000000,-0.000000,-0.000000,-0.000000,-10.422729,10.314362, 0.001457,-10.375275,-0.000174,,,,,
Sing,USC,220407 14:24:04.662, 0.000000, 0.000000, 0.000000, 0.000000, 0.000000,-1.999999,-0.000000, 0.023800, 0.015041, 0.024594, 0.091505,-0.378131, 0.087129, 0.023800, 0.015041, 0.024594, 0.091505,-0.378131, 0.087129, 0.024310, 0.014201, 0.024594, 0.078252,-0.381094, 0.087129, 0.000000, 0.000024,14.577308,72.962032, 0.000000, 0.000000, 0.000000, 0.000000, 0.000000,72.962054,-0.000000,-0.000000,-0.000000,-0.000000,-0.000000,-0.000000,-0.000000,-0.000000,-10.422729,10.314362, 0.001432,-10.375275,-0.000176,,,,,
Sing,USC,220407 14:24:22.362, 0.000000, 0.000000, 0.000000, 0.000000, 0.000000,-3.999999,-0.000000, 0.023370, 0.016664, 0.025864, 0.237830,-0.667850, 0.104142, 0.023370, 0.016664, 0.025864, 0.237830,-0.667850, 0.104142, 0.024475, 0.014994, 0.025864, 0.190663,-0.682813, 0.104142, 0.000000, 0.000026,14.576501,72.961114, 0.000000, 0.000000, 0.000000, 0.000000, 0.000000,72.961078,-0.000000,-0.000000,-0.000000,-0.000000,-0.000000,-0.000000,-0.000000,-0.000000,-10.422729,10.314362, 0.001445,-10.375275,-0.000179,,,,,
Sing,USC,220407 14:24:40.065, 0.000000, 0.000000, 0.000000, 0.000000, 0.000000,-5.999998,-0.000000, 0.028663, 0.019579, 0.040347, 0.376178,-0.958606, 0.122344, 0.028663, 0.019579, 0.040347, 0.376178,-0.958606, 0.122344, 0.030553, 0.016475, 0.040347, 0.273915,-0.992676, 0.122344, 0.000000, 0.000023,14.574674,72.959744, 0.000000, 0.000000, 0.000000, 0.000000, 0.000000,72.959752,-0.000000,-0.000000,-0.000000,-0.000000,-0.000000,-0.000000,-0.000000,-0.000000,-10.422729,10.314362, 0.001409,-10.375275,-0.000221,,,,,
Sing,USC,220407 14:24:57.771, 0.000000, 0.000000, 0.000000, 0.000000, 0.000000,-7.999999,-0.000000, 0.030042, 0.012964, 0.032644, 0.512119,-1.243589, 0.135658, 0.030042, 0.012964, 0.032644, 0.512119,-1.243589, 0.135658, 0.031554, 0.008657, 0.032644, 0.334061,-1.302760, 0.135658, 0.000000, 0.000019,14.576231,72.959106, 0.000000, 0.000000, 0.000000, 0.000000, 0.000000,72.959134,-0.000000,-0.000000,-0.000000,-0.000000,-0.000000,-0.000000,-0.000000,-0.000000,-10.422729,10.314362, 0.001463,-10.375275,-0.000234,,,,,
Sing,USC,220407 14:25:15.466, 0.000000, 0.000000, 0.000000, 0.000000, 0.000000,-9.999998,-0.000000, 0.034605, 0.008724, 0.035141, 0.644014,-1.518944, 0.150717, 0.034605, 0.008724, 0.035141, 0.644014,-1.518944, 0.150717, 0.035594, 0.002582, 0.035141, 0.370469,-1.607699, 0.150717, 0.000000, 0.000024,14.575816,72.957526, 0.000000, 0.000000, 0.000000, 0.000000, 0.000000,72.957564,-0.000000,-0.000000,-0.000000,-0.000000,-0.000000,-0.000000,-0.000000,-0.000000,-10.422729,10.314362, 0.001435,-10.375275,-0.000268,,,,,
Sing,USC,220407 14:25:33.164, 0.000000, 0.000000, 0.000000, 0.000000, 0.000000,-11.999999,-0.000000, 0.035902, 0.009512, 0.047784, 0.762377,-1.816789, 0.164175, 0.035902, 0.009512, 0.047784, 0.762377,-1.816789, 0.164175, 0.037095, 0.001840, 0.047784, 0.367986,-1.935595, 0.164175, 0.000000, 0.000043,14.574638,72.956042, 0.000000, 0.000000, 0.000000, 0.000000, 0.000000,72.956067,-0.000000,-0.000000,-0.000000,-0.000000,-0.000000,-0.000000,-0.000000,-0.000000,-10.422729,10.314362, 0.001454,-10.375275,-0.000282,,,,,
Sing,USC,220407 14:25:50.864, 0.000000, 0.000000, 0.000000, 0.000000, 0.000000,-13.999998,-0.000000, 0.038051, 0.011868, 0.039940, 0.869904,-2.100785, 0.175925, 0.038051, 0.011868, 0.039940, 0.869904,-2.100785, 0.175925, 0.039791, 0.002310, 0.039940, 0.335839,-2.248831, 0.175925, 0.000000, 0.000006,14.573481,72.954227, 0.000000, 0.000000, 0.000000, 0.000000, 0.000000,72.954241,-0.000000,-0.000000,-0.000000,-0.000000,-0.000000,-0.000000,-0.000000,-0.000000,-10.422729,10.314362, 0.001453,-10.375275,-0.000302,,,,,
Sing,USC,220407 14:26:08.562, 0.000000, 0.000000, 0.000000, 0.000000, 0.000000,-15.999999,-0.000000, 0.035426, 0.006297, 0.049492, 0.973623,-2.389578, 0.187131, 0.035426, 0.006297, 0.049492, 0.973623,-2.389578, 0.187131, 0.035789,-0.003711, 0.049492, 0.277249,-2.565376, 0.187131, 0.000000, 0.000018,14.570112,72.953556, 0.000000, 0.000000, 0.000000, 0.000000, 0.000000,72.953564,-0.000000,-0.000000,-0.000000,-0.000000,-0.000000,-0.000000,-0.000000,-0.000000,-10.422729,10.314362, 0.001517,-10.375275,-0.000288,,,,,
Sing,USC,220407 14:26:26.263, 0.000000, 0.000000, 0.000000, 0.000000, 0.000000,-18.000000,-0.000000, 0.034920, 0.005511, 0.053385, 1.072927,-2.681214, 0.199233, 0.034920, 0.005511, 0.053385, 1.072927,-2.681214, 0.199233, 0.034914,-0.005549, 0.053385, 0.191874,-2.881539, 0.199233, 0.000000, 0.000025,14.571529,72.951445, 0.000000, 0.000000, 0.000000, 0.000000, 0.000000,72.951470,-0.000000,-0.000000,-0.000000,-0.000000,-0.000000,-0.000000,-0.000000,-0.000000,-10.422729,10.314362, 0.001472,-10.375275,-0.000288,,,,,
Sing,USC,220407 14:26:43.965, 0.000000, 0.000000, 0.000000, 0.000000, 0.000000,-19.999999,-0.000000, 0.036482, 0.007882, 0.045468, 1.154693,-2.975085, 0.209943, 0.036482, 0.007882, 0.045468, 1.154693,-2.975085, 0.209943, 0.036978,-0.005071, 0.045468, 0.067518,-3.190593, 0.209943, 0.000000, 0.000025,14.572065,72.948857, 0.000000, 0.000000, 0.000000, 0.000000, 0.000000,72.948860,-0.000000,-0.000000,-0.000000,-0.000000,-0.000000,-0.000000,-0.000000,-0.000000,-10.422729,10.314362, 0.001484,-10.375275,-0.000303,,,,,
