Type,Units,Time,X Position,Y Position,Y Encoder,Z Position,Z Encoder,Yaw,Pitch,WAFBC Drag,WAFBC Side,WAFBC Lift,WAFBC Roll,WAFBC Pitch,WAFBC Yaw,WAFMC Drag,WAFMC Side,WAFMC Lift,WAFMC Roll,WAFMC Pitch,WAFMC Yaw,BAFMC Axial,BAFMC Side,BAFMC Normal,BAFMC Roll,BAFMC Pitch,BAFMC Yaw,DPT250,DPT251,PT250,TE250,Velocity,Dynamic Pressure,Mach,Reynolds Number per ft,Velocity Setpoint,Temperature Setpoint,cDAQ AI0,cDAQ AI1,cDAQ AI2,cDAQ AI3,cDAQ AI4,cDAQ AI5,cDAQ AI6,cDAQ AI7,cRIO AI0,cRIO AI1,cRIO AI2,cRIO AI3,Drag (raw),Side (raw),Lift (raw),Roll (raw),Pitch (raw),Yaw (raw)
Type,USC / SI,Time,Inches / Millimeters,Inches / Millimeters,Inches / Millimeters,Inches / Millimeters,Inches / Millimeters,Degrees / Degrees,Degrees / Degrees,lb / N,lb / N,lb / N,ft-lb / N-m,ft-lb / N-m,ft-lb / N-m,lb / N,lb / N,lb / N,ft-lb / N-m,ft-lb / N-m,ft-lb / N-m,lb / N,lb / N,lb / N,ft-lb / N-m,ft-lb / N-m,ft-lb / N-m,PSId / Pascals,PSId / Pascals,PSIa / Pascals,F / F,Ft/s / m/s,PSId / Pascals, / ,1/ft / 1/ft,ft/s / m/s,F / F, / , / , / , / , / , / , / , / , / , / , / , / , / , / , / , / , / , / 
Sing,USC,220407 14:30:53.279,0,0,0,0,0,-19.999998,0,8.310928,-20.359271,0.959398,8.764113,-4.754294,-1.274041,8.310928,-20.359271,0.959398,8.764113,-4.754294,-1.274041,0.846438,-21.973961,0.959398,6.609508,-7.465078,-1.274041,0.077333,0.07759,14.562924,70.991342,98.678645,0.077838,0.087381,597122.9556,100,72.943423,0,0,0,0,0,0,0,0,-10.422729,10.314362,0.001504,-10.375275,-0.051163,,,,,
Sing,USC,220407 14:31:11.080,0,0,0,0,0,-18,0,7.432549,-20.290985,1.034843,8.632834,-4.413477,-1.28308,7.432549,-20.290985,1.034843,8.632834,-4.413477,-1.28308,0.798515,-21.594657,1.034843,6.846474,-6.865158,-1.28308,0.079016,0.079365,14.568591,70.830617,99.720456,0.079538,0.088317,603930.45,100,72.943423,0,0,0,0,0,0,0,0,-10.422729,10.314362,0.001508,-10.375275,-0.045293,,,,,
Sing,USC,220407 14:31:28.871,0,0,0,0,0,-15.999998,0,6.293419,-20.707592,0.840975,11.532632,-4.066394,-1.373463,6.293419,-20.707592,0.840975,11.532632,-4.066394,-1.373463,0.341837,-21.640117,0.840975,9.965029,-7.087692,-1.373463,0.079362,0.079744,14.565386,70.672392,99.920943,0.079868,0.088508,605356.77,100,72.943423,0,0,0,0,0,0,0,0,-10.422729,10.314362,0.001526,-10.375275,-0.037675,,,,,
Sing,USC,220407 14:31:46.674,0,0,0,0,0,-13.999998,0,4.461352,-22.826533,0.741455,12.614495,-3.118607,-2.615188,4.461352,-22.826533,0.741455,12.614495,-3.118607,-2.615188,-1.193406,-23.227786,0.741455,11.485332,-6.077693,-2.615188,0.079954,0.080281,14.563039,70.515635,100.296078,0.080477,0.088853,607832.905,100,72.943423,0,0,0,0,0,0,0,0,-10.422729,10.314362,0.001507,-10.375275,-0.025042,,,,,
Sing,USC,220407 14:32:04.472,0,0,0,0,0,-11.999999,0,2.027766,-22.974314,0.635985,12.577613,-2.180451,-3.878254,2.027766,-22.974314,0.635985,12.577613,-2.180451,-3.878254,-2.793174,-22.893866,0.635985,11.849421,-4.747835,-3.878254,0.080217,0.080584,14.561381,70.362381,100.442769,0.080732,0.088996,609000.3725,100,70.363129,0,0,0,0,0,0,0,0,-10.422729,10.314362,0.001502,-10.375275,-0.008754,,,,,
Sing,USC,220407 14:32:22.276,0,0,0,0,0,-9.999998,0,1.460668,-20.03093,0.484392,11.205144,-1.602399,-3.376072,1.460668,-20.03093,0.484392,11.205144,-1.602399,-3.376072,-2.039856,-19.980257,0.484392,10.756659,-3.523807,-3.376072,0.080143,0.080444,14.563241,70.265122,100.384083,0.080664,0.088952,608931.0744,100,70.265357,0,0,0,0,0,0,0,0,-10.422729,10.314362,0.001542,-10.375275,-0.00557,,,,,
Sing,USC,220407 14:32:40.076,0,0,0,0,0,-7.999999,0,1.054287,-16.567069,0.372509,9.526186,-1.23838,-2.739722,1.054287,-16.567069,0.372509,9.526186,-1.23838,-2.739722,-1.261663,-16.552569,0.372509,9.261129,-2.552116,-2.739722,0.080054,0.080349,14.560709,70.313488,100.337128,0.08057,0.088906,608463.4213,100,70.312797,0,0,0,0,0,0,0,0,-10.422729,10.314362,0.001539,-10.375275,-0.003591,,,,,
Sing,USC,220407 14:32:57.881,0,0,0,0,0,-5.999998,0,0.677318,-12.015861,0.273176,7.127688,-0.833177,-2.170286,0.677318,-12.015861,0.273176,7.127688,-0.833177,-2.170286,-0.582392,-12.020836,0.273176,7.001551,-1.573658,-2.170286,0.080302,0.080625,14.561136,70.476069,100.516309,0.080825,0.089052,609156.9156,100,70.474354,0,0,0,0,0,0,0,0,-10.422729,10.314362,0.001543,-10.375275,-0.00202,,,,,
Sing,USC,220407 14:33:15.674,0,0,0,0,0,-3.999999,0,0.41424,-7.544377,0.231485,4.512583,-0.492477,-1.504125,0.41424,-7.544377,0.231485,4.512583,-0.492477,-1.504125,-0.113038,-7.554895,0.231485,4.467237,-0.806059,-1.504125,0.080156,0.080543,14.562821,70.695749,100.435411,0.080678,0.088961,608347.0538,100,70.693899,0,0,0,0,0,0,0,0,-10.422729,10.314362,0.001547,-10.375275,-0.001198,,,,,
Sing,USC,220407 14:33:33.471,0,0,0,0,0,-1.999998,0,0.284608,-3.628893,0.207268,2.223121,-0.261915,-0.759665,0.284608,-3.628893,0.207268,2.223121,-0.261915,-0.759665,0.157788,-3.636615,0.207268,2.212627,-0.339341,-0.759665,0.079848,0.080237,14.563472,70.938092,100.268094,0.08037,0.088793,606818.5756,100,70.936208,0,0,0,0,0,0,0,0,-10.422729,10.314362,0.001535,-10.375275,-0.00119,,,,,
Sing,USC,220407 14:33:51.280,0,0,0,0,0,0,0,0.256516,0.111766,0.203999,-0.000504,-0.108549,0.025313,0.256516,0.111766,0.203999,-0.000504,-0.108549,0.025313,0.256516,0.111766,0.203999,-0.000504,-0.108549,0.025313,0.079633,0.079943,14.563645,71.179977,100.152522,0.080155,0.08867,605684.5969,100,71.178226,0,0,0,0,0,0,0,0,-10.422729,10.314362,0.001564,-10.375275,-0.001768,,,,,
Sing,USC,220407 14:34:09.073,0,0,0,0,0,2,0,0.253155,3.976418,0.216226,-2.449003,-0.06871,0.814181,0.253155,3.976418,0.216226,-2.449003,-0.06871,0.814181,0.114226,3.98283,0.216226,-2.445114,-0.154138,0.814181,0.079467,0.079774,14.562491,71.40959,100.07126,0.079989,0.088579,604716.8006,100,71.408374,0,0,0,0,0,0,0,0,-10.422729,10.314362,0.00157,-10.375275,-0.002827,,,,,
Sing,USC,220407 14:34:26.871,0,0,0,0,0,4,0,0.365975,7.934657,0.261341,-4.796384,-0.149736,1.55722,0.365975,7.934657,0.261341,-4.796384,-0.149736,1.55722,-0.18841,7.940858,0.261341,-4.774255,-0.48395,1.55722,0.079245,0.079572,14.563811,71.621026,99.955418,0.07977,0.088459,603573.2125,100,71.619797,0,0,0,0,0,0,0,0,-10.422729,10.314362,0.001523,-10.375275,-0.004697,,,,,
Sing,USC,220407 14:34:44.675,0,0,0,0,0,5.999999,0,0.593997,12.383857,0.360454,-7.376174,-0.242891,2.188323,0.593997,12.383857,0.360454,-7.376174,-0.242891,2.188323,-0.703722,12.378106,0.360454,-7.310378,-1.01258,2.188323,0.078965,0.079253,14.562839,71.81249,99.78454,0.07947,0.088292,602168.6788,100,71.811561,0,0,0,0,0,0,0,0,-10.422729,10.314362,0.001519,-10.375275,-0.007469,,,,,
Sing,USC,220407 14:35:02.473,0,0,0,0,0,8,0,0.933147,16.746453,0.475296,-9.621446,-0.329051,2.744291,0.933147,16.746453,0.475296,-9.621446,-0.329051,2.744291,-1.40659,16.713346,0.475296,-9.482015,-1.664895,2.744291,0.078487,0.078848,14.564689,71.983469,99.495538,0.078997,0.088022,600174.7769,100,71.982409,0,0,0,0,0,0,0,0,-10.422729,10.314362,0.001558,-10.375275,-0.010974,,,,,
Sing,USC,220407 14:35:20.277,0,0,0,0,0,9.999999,0,1.312144,19.992616,0.598365,-11.254076,-0.520794,3.367776,1.312144,19.992616,0.598365,-11.254076,-0.520794,3.367776,-2.179471,19.916735,0.598365,-10.992667,-2.467132,3.367776,0.078155,0.078488,14.562554,72.134651,99.303617,0.078658,0.08784,598617.5944,100,72.133569,0,0,0,0,0,0,0,0,-10.422729,10.314362,0.001542,-10.375275,-0.014398,,,,,
Sing,USC,220407 14:35:38.072,0,0,0,0,0,12,0,1.854954,22.865332,0.737282,-12.629591,-0.879088,3.861873,1.854954,22.865332,0.737282,-12.629591,-0.879088,3.861873,-2.939551,22.751337,0.737282,-12.170831,-3.485717,3.861873,0.078768,0.079127,14.563532,72.270835,99.70821,0.079282,0.088187,600798.9675,100,72.269744,0,0,0,0,0,0,0,0,-10.422729,10.314362,0.001526,-10.375275,-0.01884,,,,,
Sing,USC,220407 14:35:55.875,0,0,0,0,0,13.999999,0,2.461249,25.707031,0.929736,-13.959188,-1.239088,4.312268,2.461249,25.707031,0.929736,-13.959188,-1.239088,4.312268,-3.830954,25.538852,0.929736,-13.244778,-4.579314,4.312268,0.078798,0.079102,14.562329,72.395062,99.739861,0.079311,0.088204,600723.155,100,72.394368,0,0,0,0,0,0,0,0,-10.422729,10.314362,0.001523,-10.375275,-0.023723,,,,,
Sing,USC,220407 14:36:13.677,0,0,0,0,0,16,0,4.810148,20.813387,1.013382,-8.532156,-2.906677,2.413966,4.810148,20.813387,1.013382,-8.532156,-2.906677,2.413966,-1.113136,21.332969,1.013382,-7.400445,-5.145857,2.413966,0.079145,0.079499,14.562227,72.505976,99.964484,0.07965,0.088394,601834.1956,100,72.505271,0,0,0,0,0,0,0,0,-10.422729,10.314362,0.001539,-10.375275,-0.038044,,,,,
Sing,USC,220407 14:36:31.481,0,0,0,0,0,18,0,7.371073,20.235449,1.199092,-8.682501,-3.004434,1.274548,7.371073,20.235449,1.199092,-8.682501,-3.004434,1.274548,0.757209,21.522843,1.199092,-7.329128,-5.540426,1.274548,0.078586,0.078884,14.561511,72.605939,99.623699,0.079089,0.088084,599557.0744,100,72.605019,0,0,0,0,0,0,0,0,-10.422729,10.314362,0.001492,-10.375275,-0.054914,,,,,
Sing,USC,220407 14:36:49.273,0,0,0,0,0,19.999999,0,8.405204,20.552916,1.096814,-9.04046,-3.433325,1.249138,8.405204,20.552916,1.096814,-9.04046,-3.433325,1.249138,0.868798,22.188172,1.096814,-7.320986,-6.31829,1.249138,0.07851,0.078905,14.562298,72.697583,99.592388,0.079021,0.088049,599151.4956,100,72.696729,0,0,0,0,0,0,0,0,-10.422729,10.314362,0.001548,-10.375275,-0.061803,,,,,
