Type,Units,Time,X Position,Y Position,Y Encoder,Z Position,Z Encoder,Yaw,Pitch,WAFBC Drag,WAFBC Side,WAFBC Lift,WAFBC Roll,WAFBC Pitch,WAFBC Yaw,WAFMC Drag,WAFMC Side,WAFMC Lift,WAFMC Roll,WAFMC Pitch,WAFMC Yaw,BAFMC Axial,BAFMC Side,BAFMC Normal,BAFMC Roll,BAFMC Pitch,BAFMC Yaw,DPT250,DPT251,PT250,TE250,Velocity,Dynamic Pressure,Mach,Reynolds Number per ft,Velocity Setpoint,Temperature Setpoint,cDAQ AI0,cDAQ AI1,cDAQ AI2,cDAQ AI3,cDAQ AI4,cDAQ AI5,cDAQ AI6,cDAQ AI7,cRIO AI0,cRIO AI1,cRIO AI2,cRIO AI3,Drag (raw),Side (raw),Lift (raw),Roll (raw),Pitch (raw),Yaw (raw)
Type,USC / SI,Time,Inches / Millimeters,Inches / Millimeters,Inches / Millimeters,Inches / Millimeters,Inches / Millimeters,Degrees / Degrees,Degrees / Degrees,lb / N,lb / N,lb / N,ft-lb / N-m,ft-lb / N-m,ft-lb / N-m,lb / N,lb / N,lb / N,ft-lb / N-m,ft-lb / N-m,ft-lb / N-m,lb / N,lb / N,lb / N,ft-lb / N-m,ft-lb / N-m,ft-lb / N-m,PSId / Pascals,PSId / Pascals,PSIa / Pascals,F / F,Ft/s / m/s,PSId / Pascals, / ,1/ft / 1/ft,ft/s / m/s,F / F, / , / , / , / , / , / , / , / , / , / , / , / , / , / , / , / , / , / 
Sing,USC,220407 15:41:37.458, 0.000000, 0.000000, 0.000000, 0.000000, 0.000000,-19.999998,-0.000000,18.490545,-45.625107, 2.154832,19.982260,-10.766627,-2.732611,18.490545,-45.625107, 2.154832,19.982260,-10.766627,-2.732611, 1.770725,-49.197716, 2.154832,15.094780,-16.951655,-2.732611, 0.156905, 0.173775,14.531535,70.933977,148.069808, 0.174870, 0.131125,894084.001875,150.000000,72.915521,-0.000000,-0.000000,-0.000000,-0.000000,-0.000000,-0.000000,-0.000000,-0.000000,-10.422729,10.314362, 0.001626,-10.375275,-0.113647,,,,,
Sing,USC,220407 15:41:55.657, 0.000000, 0.000000, 0.000000, 0.000000, 0.000000,-18.000000,-0.000000,16.365319,-46.431277, 2.054365,26.880739,-10.455053,-2.590636,16.365319,-46.431277, 2.054365,26.880739,-10.455053,-2.590636, 1.216290,-49.215931, 2.054365,22.334313,-18.249951,-2.590636, 0.156923, 0.177381,14.528996,70.910066,149.593202, 0.178488, 0.132477,903323.321875,150.000000,72.915521,-0.000000,-0.000000,-0.000000,-0.000000,-0.000000,-0.000000,-0.000000,-0.000000,-10.422729,10.314362, 0.001592,-10.375275,-0.099451,,,,,
Sing,USC,220407 15:42:13.858, 0.000000, 0.000000, 0.000000, 0.000000, 0.000000,-15.999998,-0.000000,13.925761,-47.230159, 1.832064,26.418336,-9.064954,-3.135481,13.925761,-47.230159, 1.832064,26.418336,-9.064954,-3.135481, 0.367906,-49.239002, 1.832064,22.896296,-15.995672,-3.135481, 0.156926, 0.178530,14.527447,70.879315,150.104546, 0.179710, 0.132933,906448.604375,150.000000,72.915521,-0.000000,-0.000000,-0.000000,-0.000000,-0.000000,-0.000000,-0.000000,-0.000000,-10.422729,10.314362, 0.001608,-10.375275,-0.083015,,,,,
Sing,USC,220407 15:42:32.163, 0.000000, 0.000000, 0.000000, 0.000000, 0.000000,-13.999997,-0.000000, 5.897902,-58.779356, 1.696643,31.688590,-6.312024,-9.662286, 5.897902,-58.779356, 1.696643,31.688590,-6.312024,-9.662286,-8.497302,-58.460190, 1.696643,29.220288,-13.790691,-9.662287, 0.156918, 0.179236,14.523957,70.842235,150.436811, 0.180496, 0.133232,908448.983750,150.000000,72.915521,-0.000000,-0.000000,-0.000000,-0.000000,-0.000000,-0.000000,-0.000000,-0.000000,-10.422729,10.314362, 0.001614,-10.375275,-0.026978,,,,,
Sing,USC,220407 15:42:50.467, 0.000000, 0.000000, 0.000000, 0.000000, 0.000000,-11.999999,-0.000000, 4.461212,-51.877919, 1.342660,28.292323,-5.093894,-8.574861, 4.461212,-51.877919, 1.342660,28.292323,-5.093894,-8.574861,-6.422302,-51.671801, 1.342660,26.614988,-10.864884,-8.574861, 0.156918, 0.179394,14.524331,70.806624,150.460912, 0.180543, 0.133258,908589.257500,150.000000,72.915521,-0.000000,-0.000000,-0.000000,-0.000000,-0.000000,-0.000000,-0.000000,-0.000000,-10.422729,10.314362, 0.001619,-10.375275,-0.018889,,,,,
Sing,USC,220407 15:43:08.659, 0.000000, 0.000000, 0.000000, 0.000000, 0.000000,-9.999998,-0.000000, 3.143367,-44.968006, 1.019748,25.214555,-3.831734,-7.507371, 3.143367,-44.968006, 1.019748,25.214555,-3.831734,-7.507371,-4.712998,-44.830681, 1.019748,24.166116,-8.151982,-7.507371, 0.156916, 0.179372,14.523763,70.771458,150.437702, 0.180498, 0.133242,908551.423750,150.000000,72.915521,-0.000000,-0.000000,-0.000000,-0.000000,-0.000000,-0.000000,-0.000000,-0.000000,-10.422729,10.314362, 0.001666,-10.375275,-0.011544,,,,,
Sing,USC,220407 15:43:26.864, 0.000000, 0.000000, 0.000000, 0.000000, 0.000000,-7.999999, 0.000000, 2.107064,-35.899077, 0.763862,20.787390,-2.854243,-6.250316, 2.107064,-35.899077, 0.763862,20.787390,-2.854243,-6.250316,-2.909627,-35.842957, 0.763862,20.187855,-5.719511,-6.250316, 0.156919, 0.179607,14.523442,70.733210,150.554655, 0.180788, 0.133350,909353.453125,150.000000,72.915521,-0.000000,-0.000000,-0.000000,-0.000000,-0.000000,-0.000000,-0.000000,-0.000000,-10.422729,10.314362, 0.001655,-10.375275,-0.006592,,,,,
Sing,USC,220407 15:43:45.157, 0.000000, 0.000000, 0.000000, 0.000000, 0.000000,-5.999998,-0.000000, 1.295109,-26.064249, 0.582018,15.360220,-1.932831,-4.873040, 1.295109,-26.064249, 0.582018,15.360220,-1.932831,-4.873040,-1.436441,-26.056843, 0.582018,15.074039,-3.527824,-4.873040, 0.156918, 0.180049,14.522081,70.690005,150.745929, 0.181257, 0.133525,910612.165000,150.000000,72.915521,-0.000000,-0.000000,-0.000000,-0.000000,-0.000000,-0.000000,-0.000000,-0.000000,-10.422729,10.314362, 0.001640,-10.375275,-0.003298,,,,,
Sing,USC,220407 15:44:03.466, 0.000000, 0.000000, 0.000000, 0.000000, 0.000000,-3.999999,-0.000000, 0.768894,-16.755290, 0.487000, 9.890968,-1.150711,-3.284110, 0.768894,-16.755290, 0.487000, 9.890968,-1.150711,-3.284110,-0.401768,-16.768110, 0.487000, 9.786606,-1.837867,-3.284110, 0.156913, 0.179617,14.523048,70.641932,150.545474, 0.180784, 0.133354,909508.045625,150.000000,72.915521,-0.000000,-0.000000,-0.000000,-0.000000,-0.000000,-0.000000,-0.000000,-0.000000,-10.422729,10.314362, 0.001657,-10.375275,-0.001777,,,,,
Sing,USC,220407 15:44:21.756, 0.000000, 0.000000, 0.000000, 0.000000, 0.000000,-1.999998,-0.000000, 0.522145,-8.360148, 0.407756, 5.091193,-0.615780,-1.623825, 0.522145,-8.360148, 0.407756, 5.091193,-0.615780,-1.623825, 0.230062,-8.373278, 0.407756, 5.066601,-0.793085,-1.623825, 0.156913, 0.179228,14.521013,70.591209,150.390645, 0.180407, 0.133223,908616.137500,150.000000,72.915521,-0.000000,-0.000000,-0.000000,-0.000000,-0.000000,-0.000000,-0.000000,-0.000000,-10.422729,10.314362, 0.001637,-10.375275,-0.001854,,,,,
Sing,USC,220407 15:44:39.956, 0.000000, 0.000000, 0.000000, 0.000000, 0.000000, 0.000000,-0.000000, 0.449173, 0.094137, 0.453795, 0.073102,-0.199193, 0.073655, 0.449173, 0.094137, 0.453795, 0.073102,-0.199193, 0.073655, 0.449173, 0.094137, 0.453795, 0.073102,-0.199193, 0.073655, 0.156907, 0.178824,14.522673,70.544932,150.205477, 0.179999, 0.133065,907739.175000,150.000000,72.915521,-0.000000,-0.000000,-0.000000,-0.000000,-0.000000,-0.000000,-0.000000,-0.000000,-10.422729,10.314362, 0.001625,-10.375275,-0.003107,,,,,
Sing,USC,220407 15:44:58.164, 0.000000, 0.000000, 0.000000, 0.000000, 0.000000, 2.000000,-0.000000, 0.447635, 8.926165, 0.455717,-5.553716,-0.150841, 1.787628, 0.447635, 8.926165, 0.455717,-5.553716,-0.150841, 1.787628, 0.135844, 8.936350, 0.455717,-5.545068,-0.344571, 1.787628, 0.156919, 0.178615,14.523085,70.499204,150.097847, 0.179749, 0.132975,907187.011875,150.000000,72.915521,-0.000000,-0.000000,-0.000000,-0.000000,-0.000000,-0.000000,-0.000000,-0.000000,-10.422729,10.314362, 0.001668,-10.375275,-0.005597,,,,,
Sing,USC,220407 15:45:16.358, 0.000000, 0.000000, 0.000000, 0.000000, 0.000000, 4.000000, 0.000000, 0.678055,17.355250, 0.588978,-10.451474,-0.308218, 3.469634, 0.678055,17.355250, 0.588978,-10.451474,-0.308218, 3.469634,-0.534237,17.360273, 0.588978,-10.404514,-1.036524, 3.469634, 0.156924, 0.178242,14.520874,70.456098,149.979291, 0.179470, 0.132875,906554.978750,150.000000,72.915521,-0.000000,-0.000000,-0.000000,-0.000000,-0.000000,-0.000000,-0.000000,-0.000000,-10.422729,10.314362, 0.001626,-10.375275,-0.009500,,,,,
Sing,USC,220407 15:45:34.552, 0.000000, 0.000000, 0.000000, 0.000000, 0.000000, 5.999999,-0.000000, 1.125562,26.582989, 0.751531,-15.885603,-0.444887, 5.010385, 1.125562,26.582989, 0.751531,-15.885603,-0.444887, 5.010385,-1.659283,26.555017, 0.751531,-15.752078,-2.102948, 5.010385, 0.156912, 0.177689,14.523201,70.419009,149.724243, 0.178899, 0.132654,905258.440000,150.000000,72.915521,-0.000000,-0.000000,-0.000000,-0.000000,-0.000000,-0.000000,-0.000000,-0.000000,-10.422729,10.314362, 0.001660,-10.375275,-0.015160,,,,,
Sing,USC,220407 15:45:52.754, 0.000000, 0.000000, 0.000000, 0.000000, 0.000000, 8.000000,-0.000000, 1.883138,36.441904, 0.953972,-21.371922,-0.582219, 6.303760, 1.883138,36.441904, 0.953972,-21.371922,-0.582219, 6.303760,-3.206921,36.349336, 0.953972,-21.082903,-3.550950, 6.303761, 0.156920, 0.176756,14.525829,70.381034,149.300026, 0.177936, 0.132283,902993.136875,150.000000,72.915521,-0.000000,-0.000000,-0.000000,-0.000000,-0.000000,-0.000000,-0.000000,-0.000000,-10.422729,10.314362, 0.001616,-10.375275,-0.023013,,,,,
Sing,USC,220407 15:46:10.957, 0.000000, 0.000000, 0.000000, 0.000000, 0.000000, 9.999999,-0.000000, 2.874162,44.661217, 1.220316,-25.272281,-1.128484, 7.472301, 2.874162,44.661217, 1.220316,-25.272281,-1.128484, 7.472301,-4.924840,44.481806, 1.220316,-24.692379,-5.499825, 7.472301, 0.156925, 0.175951,14.527886,70.344509,148.947726, 0.177132, 0.131975,901083.290000,150.000000,72.915521,-0.000000,-0.000000,-0.000000,-0.000000,-0.000000,-0.000000,-0.000000,-0.000000,-10.422729,10.314362, 0.001588,-10.375275,-0.032015,,,,,
Sing,USC,220407 15:46:29.152, 0.000000, 0.000000, 0.000000, 0.000000, 0.000000,11.999999,-0.000000, 4.088388,51.798653, 1.568802,-28.318463,-2.063910, 8.704734, 4.088388,51.798653, 1.568802,-28.318463,-2.063910, 8.704734,-6.770497,51.516751, 1.568802,-27.270526,-7.906548, 8.704734, 0.156910, 0.177463,14.522879,70.317160,149.605142, 0.178642, 0.132561,904812.383750,150.000000,72.915521,-0.000000,-0.000000,-0.000000,-0.000000,-0.000000,-0.000000,-0.000000,-0.000000,-10.422729,10.314362, 0.001583,-10.375275,-0.042145,,,,,
Sing,USC,220407 15:46:47.469, 0.000000, 0.000000, 0.000000, 0.000000, 0.000000,13.999999,-0.000000, 5.486490,58.819056, 1.944080,-31.743985,-2.958288, 9.801680, 5.486490,58.819056, 1.944080,-31.743985,-2.958288, 9.801680,-8.906097,58.399181, 1.944080,-30.085379,-10.549980, 9.801680, 0.156913, 0.177612,14.523322,70.294194,149.665671, 0.178814, 0.132618,905343.401875,150.000000,72.915521,-0.000000,-0.000000,-0.000000,-0.000000,-0.000000,-0.000000,-0.000000,-0.000000,-10.422729,10.314362, 0.001570,-10.375275,-0.053483,,,,,
Sing,USC,220407 15:47:05.657, 0.000000, 0.000000, 0.000000, 0.000000, 0.000000,15.999999,-0.000000, 7.127455,64.699304, 2.369587,-34.240510,-3.837230,10.476534, 7.127455,64.699304, 2.369587,-34.240510,-3.837230,10.476534,-10.982194,64.157556, 2.369587,-31.856407,-13.126546,10.476534, 0.156921, 0.177454,14.525513,70.275792,149.561735, 0.178577, 0.132528,904798.912500,150.000000,72.915521,-0.000000,-0.000000,-0.000000,-0.000000,-0.000000,-0.000000,-0.000000,-0.000000,-10.422729,10.314362, 0.001603,-10.375275,-0.066081,,,,,
Sing,USC,220407 15:47:23.955, 0.000000, 0.000000, 0.000000, 0.000000, 0.000000,18.000000,-0.000001,15.045026,48.729175, 2.303762,-28.826324,-5.299736, 3.172743,15.045026,48.729175, 2.303762,-28.826324,-5.299736, 3.172743,-0.749474,50.993368, 2.303762,-25.777755,-13.948172, 3.172743, 0.156914, 0.178330,14.529963,70.268342,149.913772, 0.179477, 0.132841,907235.799375,150.000000,72.915521,-0.000000,-0.000000,-0.000000,-0.000000,-0.000000,-0.000000,-0.000000,-0.000000,-10.422729,10.314362, 0.001650,-10.375275,-0.114495,,,,,
Sing,USC,220407 15:47:42.254, 0.000000, 0.000000, 0.000000, 0.000000, 0.000000,19.999999,-0.000000,18.935804,46.637106, 2.443332,-20.337274,-7.752330, 2.924503,18.935804,46.637106, 2.443332,-20.337274,-7.752330, 2.924503, 1.843006,50.300970, 2.443332,-16.459333,-14.240565, 2.924503, 0.156925, 0.177771,14.529754,70.268038,149.680640, 0.178914, 0.132634,905798.845625,150.000000,72.915521,-0.000000,-0.000000,-0.000000,-0.000000,-0.000000,-0.000000,-0.000000,-0.000000,-10.422729,10.314362, 0.001637,-10.375275,-0.139848,,,,,
